{
"type": "FeatureCollection",
"name": "hypothetical_observations_v2_wgs84",
"crs": { "type": "name", "properties": { "name": "urn:ogc:def:crs:OGC:1.3:CRS84" } },
"features": [
{ "type": "Feature", "properties": { "id": 1, "left": null, "top": null, "right": null, "bottom": null, "name": "South Wight Maritime MPA" }, "geometry": { "type": "Point", "coordinates": [ -1.416272509762604, 50.619125721691965 ] } },
{ "type": "Feature", "properties": { "id": 2, "left": null, "top": null, "right": null, "bottom": null, "name": "Chesil and the Fleet MPA" }, "geometry": { "type": "Point", "coordinates": [ -2.539086163407007, 50.615498479473153 ] } },
{ "type": "Feature", "properties": { "id": 775, "left": -55000.0, "top": 5510000.0, "right": -50000.0, "bottom": 5515000.0, "name": "Western Channel MPA" }, "geometry": { "type": "Point", "coordinates": [ -4.666655962472976, 49.487864083895936 ] } },
{ "type": "Feature", "properties": { "id": 1270, "left": -10000.0, "top": 5600000.0, "right": -5000.0, "bottom": 5605000.0, "name": "Plymouth " }, "geometry": { "type": "Point", "coordinates": [ -4.168971770090887, 50.330533945841275 ] } },
{ "type": "Feature", "properties": { "id": 2063, "left": 60000.0, "top": 5625000.0, "right": 65000.0, "bottom": 5630000.0, "name": "Lyme Bay aquaculture" }, "geometry": { "type": "Point", "coordinates": [ -3.220982376537247, 50.610442930476189 ] } },
{ "type": "Feature", "properties": { "id": 3440, "left": 180000.0, "top": 5580000.0, "right": 185000.0, "bottom": 5585000.0, "name": "Wight-Barfleur Reef MPA" }, "geometry": { "type": "Point", "coordinates": [ -1.492561594891478, 50.285192255984128 ] } },
{ "type": "Feature", "properties": { "id": 3829, "left": 215000.0, "top": 5630000.0, "right": 220000.0, "bottom": 5635000.0, "name": "Porthsmouth" }, "geometry": { "type": "Point", "coordinates": [ -1.040728539143914, 50.751682048558827 ] } },
{ "type": "Feature", "properties": { "id": 4516, "left": 275000.0, "top": 5615000.0, "right": 280000.0, "bottom": 5620000.0, "name": "Hastings windfarm" }, "geometry": { "type": "Point", "coordinates": [ -0.182503066454854, 50.643357086073578 ] } },
{ "type": "Feature", "properties": { "id": 5370, "left": 350000.0, "top": 5620000.0, "right": 355000.0, "bottom": 5625000.0, "name": "Inner Bank MPA" }, "geometry": { "type": "Point", "coordinates": [ 0.875331979365225, 50.712431524729496 ] } }
]
}
